[
  { "lat": 37.7749, "lon": -122.4194, "country": "USA", "city": "San Francisco", "count": 124 },
  { "lat": 51.5074, "lon": -0.1278, "country": "UK", "city": "London", "count": 98 },
  { "lat": 35.6895, "lon": 139.6917, "country": "Japan", "city": "Tokyo", "count": 86 },
  { "lat": -33.8688, "lon": 151.2093, "country": "Australia", "city": "Sydney", "count": 42 },
  { "lat": 28.6139, "lon": 77.2090, "country": "India", "city": "Delhi", "count": 73 },
  { "lat": 48.8566, "lon": 2.3522, "country": "France", "city": "Paris", "count": 55 }
]
